City_ID,City,Country,Lat,Lng,Max Temp,Humidity,Cloudiness,Wind Speed,Current Description
0,Busselton,AU,-33.65,115.3333,57.85,77,0,5.03,clear sky
1,Isangel,VU,-19.55,169.2667,81.57,67,10,1.19,clear sky
2,Avarua,CK,-21.2078,-159.775,78.67,74,58,2.71,broken clouds
3,Cabo San Lucas,MX,22.8909,-109.9124,81.61,53,0,4.61,clear sky
4,Nikolskoye,RU,59.7035,30.7861,40.91,88,100,5.41,overcast clouds
5,Murgab,TM,37.4966,61.9714,73.51,34,5,13.91,clear sky
6,Ushuaia,AR,-54.8,-68.3,40.66,81,40,35.68,scattered clouds
7,Asfi,MA,32.2994,-9.2372,63.73,77,2,15.35,clear sky
8,Kapaa,US,22.0752,-159.319,80.58,67,0,14.97,clear sky
9,Los Andes,CL,-32.8337,-70.5983,56.01,45,14,1.88,few clouds
10,Hambantota,LK,6.1241,81.1185,80.02,82,36,13.58,scattered clouds
11,Luderitz,NA,-26.6481,15.1594,57.0,79,0,7.29,clear sky
12,Ampanihy,MG,-24.7,44.75,64.53,93,0,2.66,clear sky
13,Vaini,TO,-21.2,-175.2,82.56,74,20,11.5,few clouds
14,Ribeira Grande,PT,38.5167,-28.7,62.19,76,7,16.53,clear sky
15,Port Alfred,ZA,-33.5906,26.891,59.18,94,94,5.01,overcast clouds
16,Russell,US,32.3502,-85.1999,71.38,100,20,3.44,few clouds
17,Cape Town,ZA,-33.9258,18.4232,61.12,95,7,5.12,clear sky
18,Yellowknife,CA,62.456,-114.3525,57.56,28,14,5.99,few clouds
19,Labuhan,ID,-6.8844,112.2051,80.4,81,100,3.33,overcast clouds
20,Jamestown,US,42.097,-79.2353,69.39,67,100,13.8,overcast clouds
21,Bluff,NZ,-46.6,168.3333,48.79,62,42,4.36,scattered clouds
22,Sterling,US,39.0062,-77.4286,66.2,59,100,8.05,overcast clouds
23,Barrow,US,71.2906,-156.7887,33.82,86,20,16.11,few clouds
24,New Glasgow,CA,45.5834,-62.6486,48.92,72,100,9.37,overcast clouds
25,New Norfolk,AU,-42.7826,147.0587,54.91,84,100,3.09,overcast clouds
26,Gubbi,IN,13.3106,76.9444,74.12,77,16,5.44,few clouds
27,Hobart,AU,-42.8794,147.3294,55.26,88,75,8.05,broken clouds
28,Hilo,US,19.7297,-155.09,88.29,72,75,12.66,broken clouds
29,Saint-Pierre,RE,-21.3393,55.4781,71.28,64,0,8.05,clear sky
30,Minapasuk,PH,10.6988,123.3536,82.45,72,100,3.11,overcast clouds
31,Mataura,NZ,-46.1927,168.8643,48.47,69,29,3.27,scattered clouds
32,Albany,US,42.6001,-73.9662,65.79,65,100,4.72,overcast clouds
33,Chuy,UY,-33.6971,-53.4616,57.43,92,100,17.56,overcast clouds
34,Coffs Harbour,AU,-30.3,153.1333,68.13,73,75,10.36,broken clouds
35,Aklavik,CA,68.2191,-135.0107,50.99,52,15,0.85,few clouds
36,Bairnsdale,AU,-37.8333,147.6167,64.06,74,73,1.01,broken clouds
37,Pelotas,BR,-31.7719,-52.3425,60.85,96,100,4.29,moderate rain
38,Petropavlovsk-Kamchatskiy,RU,53.0452,158.6483,41.59,87,75,4.47,light rain
39,Awjilah,LY,29.1081,21.2869,82.42,12,0,6.82,clear sky
40,Nemuro,JP,43.3236,145.575,53.06,91,66,10.89,broken clouds
41,Kaitangata,NZ,-46.2817,169.8464,47.23,66,69,8.14,broken clouds
42,Senador Canedo,BR,-16.7081,-49.0931,65.53,59,0,8.05,clear sky
43,Mao,ES,39.8885,4.2658,64.96,63,0,16.11,clear sky
44,Filadelfia,US,39.9523,-75.1638,65.7,53,75,8.05,broken clouds
45,Nanortalik,GL,60.1432,-45.2371,33.84,79,5,8.52,clear sky
46,Pochutla,MX,15.7432,-96.4661,82.81,78,100,1.01,overcast clouds
47,Lincoln,US,40.8,-96.667,52.18,95,100,25.32,moderate rain
48,Bambous Virieux,MU,-20.3428,57.7575,70.21,88,20,2.3,few clouds
49,Punta Arenas,CL,-53.15,-70.9167,42.91,75,40,32.21,scattered clouds
50,Nara,JP,34.6851,135.8049,79.5,36,100,3.58,overcast clouds
51,Talnakh,RU,69.4865,88.3972,31.21,77,10,3.96,clear sky
52,Watertown,US,42.3709,-71.1828,63.41,58,0,16.11,clear sky
53,Tabou,CI,4.423,-7.3528,77.49,84,63,6.44,light rain
54,Paulista,BR,-7.9408,-34.8731,73.26,86,100,10.87,overcast clouds
55,Fukue,JP,32.6881,128.8419,68.4,74,100,8.16,heavy intensity rain
56,East London,ZA,-33.0153,27.9116,63.57,72,100,14.74,overcast clouds
57,Faya,SA,18.3851,42.4509,69.31,34,24,3.62,few clouds
58,Butaritari,KI,3.0707,172.7902,81.55,75,100,17.25,overcast clouds
59,Lebu,CL,-37.6167,-73.65,46.98,82,8,15.88,clear sky
60,Vila Franca Do Campo,PT,37.7167,-25.4333,65.19,76,47,4.54,scattered clouds
61,Tasiilaq,GL,65.6145,-37.6368,35.76,84,100,2.75,overcast clouds
62,Firovo,RU,57.4814,33.7021,40.44,78,100,4.47,overcast clouds
63,Marsh Harbour,BS,26.5412,-77.0636,78.01,73,11,15.01,few clouds
64,Sola,VU,-13.8833,167.55,81.23,72,48,11.88,scattered clouds
65,Galveston,US,29.3669,-94.9669,81.05,66,0,6.91,clear sky
66,Uyuni,BO,-20.4597,-66.825,42.44,15,100,4.65,overcast clouds
67,Nouadhibou,MR,20.931,-17.0347,65.26,90,5,21.77,clear sky
68,Mount Isa,AU,-20.7333,139.5,76.77,38,0,11.5,clear sky
69,Verkhoyansk,RU,67.5447,133.385,37.51,67,100,20.2,overcast clouds
70,Canico,PT,32.6333,-16.85,65.12,84,75,12.66,broken clouds
71,Masvingo,ZW,-20.0637,30.8277,56.95,61,0,2.66,clear sky
72,Arraial Do Cabo,BR,-22.9661,-42.0278,69.76,88,0,4.61,clear sky
73,Asau,RO,46.4333,26.4,61.95,77,100,15.79,overcast clouds
74,Atuona,PF,-9.8,-139.0333,78.51,73,7,19.13,clear sky
75,Duluth,US,46.7833,-92.1066,49.06,95,100,27.63,mist
76,Souillac,MU,-20.5167,57.5167,70.18,88,20,2.3,few clouds
77,Iqaluit,CA,63.7506,-68.5145,11.93,78,20,11.5,few clouds
78,Hithadhoo,MV,-0.6,73.0833,83.39,65,22,4.83,few clouds
79,Williams Lake,CA,52.1415,-122.1445,68.05,27,75,10.36,broken clouds
80,Umm Lajj,SA,25.0213,37.2685,78.73,59,0,6.26,clear sky
81,Matagami,CA,49.7502,-77.6328,55.87,72,100,4.65,overcast clouds
82,Vysokogornyy,RU,50.1167,139.15,64.38,37,90,4.52,overcast clouds
83,Leon,MX,21.1167,-101.6667,86.05,9,0,2.66,clear sky
84,Deputatskiy,RU,69.3,139.9,28.94,88,100,6.02,light snow
85,Provideniya,RU,64.3833,-173.3,32.11,100,20,8.95,fog
86,Vardo,NO,70.3705,31.1107,39.18,87,60,9.22,broken clouds
87,Codrington,AU,-38.2667,141.9667,59.43,79,89,13.58,overcast clouds
88,Chokurdakh,RU,70.6333,147.9167,31.96,70,73,10.27,broken clouds
89,Georgetown,MY,5.4112,100.3354,84.13,76,20,1.14,few clouds
90,Mar Del Plata,AR,-38.0023,-57.5575,50.95,58,40,5.01,scattered clouds
91,Basingstoke,GB,51.2625,-1.0871,53.13,91,30,10.36,scattered clouds
92,Castro,BR,-24.7911,-50.0119,54.77,78,0,3.53,clear sky
93,Poronaysk,RU,49.2167,143.1167,45.84,87,74,11.34,broken clouds
94,Rikitea,PF,-23.1203,-134.9692,75.06,75,6,4.09,clear sky
95,Orocue,CO,4.7912,-71.3354,76.71,88,45,1.88,scattered clouds
96,Lagoa,PT,39.05,-27.9833,60.96,78,0,15.32,clear sky
97,Puerto Suarez,BO,-18.95,-57.8,75.51,43,100,2.37,overcast clouds
98,Mahebourg,MU,-20.4081,57.7,70.25,88,20,2.3,few clouds
99,Kudahuvadhoo,MV,2.6708,72.8944,82.38,73,15,9.22,few clouds
100,Grindavik,IS,63.8424,-22.4338,42.75,93,75,4.61,broken clouds
101,Cassilandia,BR,-19.1133,-51.7342,65.68,58,81,3.29,broken clouds
102,Ancud,CL,-41.8697,-73.8203,39.58,82,6,5.32,clear sky
103,Faanui,PF,-16.4833,-151.75,80.98,68,7,12.5,clear sky
104,Awbari,LY,26.5921,12.7805,82.35,9,100,3.71,overcast clouds
105,Sidi Ali,DZ,36.0998,0.4206,59.63,75,16,6.33,few clouds
106,Clyde River,CA,70.4692,-68.5914,16.03,92,100,25.32,light snow
107,Fortuna,US,40.5982,-124.1573,64.92,80,20,13.8,few clouds
108,Komsomolskiy,UZ,40.4272,71.7189,66.92,55,98,2.3,overcast clouds
109,Marzuq,YE,14.4,46.4667,73.9,35,9,3.38,clear sky
110,Tuktoyaktuk,CA,69.4541,-133.0374,37.4,75,75,5.75,broken clouds
111,Dikson,RU,73.5069,80.5464,21.88,94,100,3.89,overcast clouds
112,Falmouth,GB,50.1544,-5.0711,56.3,94,75,14.97,broken clouds
113,Mount Gambier,AU,-37.8333,140.7667,57.11,94,100,8.05,overcast clouds
114,Adrar,MR,20.5022,-10.0711,87.24,13,0,7.7,clear sky
115,Fairbanks,US,64.8378,-147.7164,69.6,33,75,11.5,broken clouds
116,Norman Wells,CA,65.282,-126.8329,51.84,71,100,8.05,overcast clouds
117,Jiayuguan,CN,39.8167,98.3,63.72,17,100,6.2,overcast clouds
118,Hofn,IS,64.2539,-15.2082,43.9,84,20,3.27,few clouds
119,Sinnamary,GF,5.3833,-52.95,78.12,88,54,8.21,broken clouds
120,Pisco,PE,-13.7,-76.2167,62.65,88,100,5.75,mist
121,San Policarpo,PH,12.1791,125.5072,83.41,77,100,8.95,overcast clouds
122,Monastyrshchina,RU,54.3496,31.838,49.1,90,67,6.46,broken clouds
123,La Ronge,CA,55.1001,-105.2842,64.65,34,71,4.61,broken clouds
124,Cidreira,BR,-30.1811,-50.2056,65.48,85,100,3.96,overcast clouds
125,Longyearbyen,SJ,78.2186,15.6401,39.04,87,75,3.44,broken clouds
126,Jumla,NP,29.2747,82.1838,53.71,64,80,2.08,broken clouds
127,Khatanga,RU,71.9667,102.5,31.35,76,25,6.58,scattered clouds
128,Benemerito De Las Americas,MX,16.5167,-90.6439,79.95,82,94,4.23,overcast clouds
129,Victoria,HK,22.2855,114.1577,84.38,89,58,8.99,broken clouds
130,Port Lincoln,AU,-34.7333,135.8667,61.83,72,12,10.09,few clouds
131,Grand Gaube,MU,-20.0064,57.6608,70.38,79,5,4.0,clear sky
132,Severo-Kurilsk,RU,50.6789,156.125,41.72,91,88,6.2,overcast clouds
133,Geraldton,AU,-28.7667,114.6,63.01,72,75,12.66,broken clouds
134,Punta Alta,AR,-38.8759,-62.0736,44.62,53,0,2.1,clear sky
135,Kruisfontein,ZA,-34.0033,24.7314,56.03,90,25,6.06,scattered clouds
136,Zaranj,AF,30.9667,61.8833,78.21,31,0,24.4,clear sky
137,Pimentel,PE,-6.8367,-79.9342,64.54,85,6,12.01,clear sky
138,Leh,IN,34.1667,77.5833,48.11,43,14,7.4,few clouds
139,Roald,NO,62.5833,6.1333,50.32,87,20,6.91,few clouds
140,Upernavik,GL,72.7868,-56.1549,24.89,61,99,5.44,overcast clouds
141,Esperance,AU,-33.8667,121.9,60.8,67,12,8.41,few clouds
142,Trelew,AR,-43.249,-65.3051,41.18,38,0,6.67,clear sky
143,Touros,BR,-5.1989,-35.4608,75.58,89,98,10.49,overcast clouds
144,Saint-Michel-Des-Saints,CA,46.6834,-73.9159,56.1,69,100,6.02,overcast clouds
145,Goderich,CA,43.7501,-81.7165,62.92,72,100,14.97,overcast clouds
146,Atar,MR,20.5169,-13.0499,90.03,15,10,2.17,clear sky
147,Sibolga,ID,1.7427,98.7792,79.45,72,99,0.76,overcast clouds
148,Aravissos,GR,40.84,22.2956,71.92,83,12,2.51,few clouds
149,Hermanus,ZA,-34.4187,19.2345,58.8,93,84,2.35,light rain
150,Portland,US,45.5234,-122.6762,74.61,54,75,5.75,broken clouds
151,Morondava,MG,-20.2833,44.2833,69.13,89,1,7.54,clear sky
152,Boden,SE,65.8252,21.6886,48.2,83,100,2.89,overcast clouds
153,Porto Belo,BR,-27.1578,-48.5531,69.26,93,3,4.99,clear sky
154,Baykit,RU,61.67,96.37,53.89,70,15,5.66,light rain
155,Neiafu,TO,-18.65,-173.9833,84.88,74,40,13.8,scattered clouds
156,Bredasdorp,ZA,-34.5322,20.0403,58.51,92,100,1.48,overcast clouds
157,Namibe,AO,-15.1961,12.1522,66.88,71,0,7.99,clear sky
158,Sinnai,IT,39.3042,9.2036,69.51,79,0,9.22,light rain
159,Nerchinskiy Zavod,RU,51.3088,119.61,72.91,23,7,1.19,clear sky
160,Linxia,CN,35.6003,103.2064,59.86,77,100,2.39,light rain
161,Saint George,US,37.1041,-113.5841,96.64,9,0,5.01,clear sky
162,Egvekinot,RU,66.3167,-179.1667,43.29,68,61,6.35,broken clouds
163,Karratha,AU,-20.7377,116.8463,78.39,51,32,10.27,scattered clouds
164,Quelimane,MZ,-17.8786,36.8883,66.15,94,0,0.0,clear sky
165,Alofi,NU,-19.0595,-169.9187,82.29,74,75,13.8,broken clouds
166,Cururupu,BR,-1.8283,-44.8683,73.47,98,20,3.24,few clouds
167,Lodja,CD,-3.4833,23.4333,67.55,97,92,1.83,overcast clouds
168,Puerto Ayora,EC,-0.7393,-90.3518,71.55,95,16,3.0,few clouds
169,Saint Anthony,US,45.0205,-93.218,51.49,93,100,16.11,overcast clouds
170,Salta,AR,-24.7859,-65.4117,62.58,77,40,8.05,scattered clouds
171,Huarmey,PE,-10.0681,-78.1522,64.13,86,12,7.18,few clouds
172,Lompoc,US,34.6391,-120.4579,67.59,68,0,11.5,clear sky
173,Semey,KZ,50.4111,80.2275,70.02,35,0,2.24,clear sky
174,Sorong,ID,-0.8833,131.25,81.64,75,56,9.13,broken clouds
175,Kodiak,US,57.79,-152.4072,54.91,67,0,8.05,clear sky
176,Batagay-Alyta,RU,67.8006,130.4114,27.12,81,86,15.5,overcast clouds
177,Cherskiy,RU,68.75,161.3,44.35,57,8,13.24,clear sky
178,Hasaki,JP,35.7333,140.8333,77.29,69,87,10.16,overcast clouds
179,Port Hedland,AU,-20.3167,118.5667,80.65,39,30,12.66,scattered clouds
180,Quatre Cocos,MU,-20.2078,57.7625,70.09,67,35,8.75,scattered clouds
181,Disna,BY,55.568,28.1971,54.93,77,100,5.39,overcast clouds
182,Joshimath,IN,30.5667,79.5667,62.64,48,4,1.72,clear sky
183,Ponta Do Sol,PT,32.6667,-17.1,65.01,75,100,5.14,overcast clouds
184,Japura,ID,-0.3167,102.35,75.04,96,100,1.48,overcast clouds
185,Lamu,KE,-2.2717,40.902,79.02,83,100,13.0,overcast clouds
186,Carnarvon,AU,-24.8667,113.6333,72.25,45,100,4.76,overcast clouds
187,Paracuru,BR,-3.41,-39.0306,77.11,87,65,9.13,broken clouds
188,Skaerbaek,DK,55.1573,8.769,55.81,86,16,19.1,few clouds
189,Saint-Philippe,RE,-21.3585,55.7679,69.39,76,0,6.42,clear sky
190,Kloulklubed,PW,7.0419,134.2556,81.1,78,100,13.56,overcast clouds
191,Tabuk,PH,17.4189,121.4443,83.73,76,64,6.08,broken clouds
192,Mpika,ZM,-11.8343,31.4529,55.76,79,0,3.94,clear sky
193,Lorengau,PG,-2.0226,147.2712,84.29,66,100,2.06,overcast clouds
194,Leshukonskoye,RU,64.8989,45.7622,43.25,95,100,7.29,light rain
195,Thayetmyo,MM,19.3167,95.1833,82.71,70,7,7.2,clear sky
196,Phu Ly,VN,20.5411,105.9139,82.45,86,99,2.53,overcast clouds
197,Camacupa,AO,-12.0167,17.4833,49.05,50,39,4.54,scattered clouds
198,Meulaboh,ID,4.1363,96.1285,78.98,78,99,4.65,overcast clouds
199,Dingle,PH,10.9995,122.6711,85.6,70,100,4.29,overcast clouds
200,Carballo,ES,43.213,-8.691,58.01,90,40,4.07,scattered clouds
201,San Patricio,US,28.017,-97.5169,83.91,59,92,2.59,overcast clouds
202,Mweka,CD,-4.85,21.5667,67.19,97,84,1.7,broken clouds
203,Mokrous,RU,51.2333,47.5167,42.57,68,100,2.68,overcast clouds
204,Gushikawa,JP,26.3544,127.8686,76.23,94,100,5.75,mist
205,Kedrovyy,RU,56.1667,91.8167,57.87,61,0,8.57,clear sky
206,Gilgit,PK,35.9221,74.3087,72.25,34,0,4.76,clear sky
207,Nome,US,64.5011,-165.4064,51.17,66,0,10.36,clear sky
208,U Thong,TH,14.3751,99.8923,81.46,75,99,7.58,overcast clouds
209,Thompson,CA,55.7435,-97.8558,59.16,44,40,8.05,scattered clouds
210,Saldanha,ZA,-33.0117,17.9442,60.01,92,0,3.69,clear sky
211,Sao Filipe,CV,14.8961,-24.4956,71.38,80,2,6.98,clear sky
212,Primalkinskoye,RU,43.7467,44.0083,54.45,76,8,4.61,clear sky
213,Roma,US,43.2128,-75.4557,68.14,66,20,5.75,few clouds
214,Peterhead,GB,57.5058,-1.7981,45.45,77,3,15.12,clear sky
215,Port-Cartier,CA,50.0334,-66.8654,55.62,48,100,7.14,overcast clouds
216,Florence,IT,43.7667,11.25,69.35,88,0,1.14,clear sky
217,Canon City,US,38.441,-105.2424,69.67,30,0,9.22,clear sky
218,Tomatlan,MX,19.9333,-105.25,79.54,64,0,6.46,clear sky
219,Qaanaaq,GL,77.484,-69.3632,14.13,86,28,3.18,scattered clouds
220,Nabire,ID,-3.3667,135.4833,80.13,83,98,2.75,overcast clouds
221,Jiaojiang,CN,28.6803,121.4428,73.99,92,100,3.0,overcast clouds
222,Beloha,MG,-25.1667,45.05,65.44,89,0,2.59,clear sky
223,Zhumadian,CN,32.9794,114.0294,67.15,44,100,7.09,overcast clouds
224,Moree,AU,-29.4667,149.85,65.26,58,65,5.41,broken clouds
225,Bathsheba,BB,13.2167,-59.5167,81.21,78,40,16.11,scattered clouds
226,Vila Velha,BR,-20.3297,-40.2925,69.75,93,75,3.44,broken clouds
227,Chiquilistlan,MX,20.2,-103.8167,81.39,20,17,6.11,few clouds
228,Rio Gallegos,AR,-51.6226,-69.2181,37.45,75,0,25.32,clear sky
229,Tiksi,RU,71.6872,128.8694,26.33,83,100,10.11,overcast clouds
230,Mecca,SA,21.4267,39.8261,84.72,22,5,5.73,clear sky
231,Rafaela,AR,-31.2503,-61.4867,53.01,64,100,8.99,overcast clouds
232,Dubbo,AU,-32.25,148.6167,66.33,63,40,5.75,scattered clouds
233,Kaoma,ZM,-14.7833,24.8,52.65,45,0,4.56,clear sky
234,Saskylakh,RU,71.9167,114.0833,26.73,90,93,6.06,overcast clouds
235,Bethel,US,41.3712,-73.414,60.89,69,0,3.44,clear sky
236,Kieta,PG,-6.2167,155.6333,84.2,71,79,5.1,light rain
237,Vao,NC,-22.6667,167.4833,74.43,75,79,7.9,broken clouds
238,Lavrentiya,RU,65.5833,-171.0,41.94,84,100,7.74,overcast clouds
239,Bengkulu,ID,-3.8004,102.2655,77.68,72,99,2.13,overcast clouds
240,Ilulissat,GL,69.2167,-51.1,37.42,48,75,12.66,broken clouds
241,Vestmannaeyjar,IS,63.4427,-20.2734,45.5,72,27,4.21,scattered clouds
242,Ordzhonikidze,KZ,52.4411,61.7408,53.46,82,98,10.56,light rain
243,Padang,ID,-0.9492,100.3543,75.25,66,96,1.59,overcast clouds
244,Celestun,MX,20.8667,-90.4,85.73,64,54,4.52,broken clouds
245,Yeppoon,AU,-23.1333,150.7333,74.98,76,91,11.01,overcast clouds
246,Kalmar,SE,56.6616,16.3616,52.97,91,100,3.0,light rain
247,Vostok,RU,46.4856,135.8833,70.99,51,100,2.55,overcast clouds
248,Manoel Urbano,BR,-8.8389,-69.2597,76.48,85,99,1.21,overcast clouds
249,Ternate,ID,0.8,127.4,82.71,71,86,1.48,overcast clouds
250,Ishigaki,JP,24.3448,124.1572,77.13,100,75,4.61,shower rain
251,Pevek,RU,69.7008,170.3133,31.69,91,99,7.2,overcast clouds
252,Usinsk,RU,65.9939,57.5281,54.86,70,90,23.06,overcast clouds
253,Enid,US,36.3956,-97.8784,53.76,96,100,14.97,moderate rain
254,Ocos,GT,14.5094,-92.1933,77.18,80,99,13.82,overcast clouds
255,Arlit,NE,18.7369,7.3853,85.86,24,65,8.68,broken clouds
256,Ponta Delgada,PT,37.7333,-25.6667,65.5,67,75,3.44,broken clouds
257,Sitka,US,57.0531,-135.33,55.29,62,20,18.41,few clouds
258,Ekhabi,RU,53.5102,142.9671,52.11,75,100,8.68,overcast clouds
259,Wajir,KE,1.7471,40.0573,74.7,81,10,9.26,clear sky
260,Grand-Lahou,CI,5.1367,-5.0242,76.98,87,53,4.92,broken clouds
261,Kingaroy,AU,-26.5333,151.8333,64.44,82,100,10.36,overcast clouds
262,Bubaque,GW,11.2833,-15.8333,77.97,79,100,10.0,overcast clouds
263,Pacific Grove,US,36.6177,-121.9166,71.2,84,0,8.99,clear sky
264,Qaqortoq,GL,60.7167,-46.0333,34.57,75,2,4.27,clear sky
265,Opuwo,NA,-18.0607,13.84,57.29,34,0,5.57,clear sky
266,Rambha,IN,19.5167,85.1,83.16,78,6,8.77,clear sky
267,Basoda,IN,23.85,77.9333,89.02,28,1,4.63,clear sky
268,Casma,CL,-41.0082,-73.1244,37.0,94,0,3.67,clear sky
269,Klaksvik,FO,62.2266,-6.589,45.52,77,5,17.69,clear sky
270,Kavieng,PG,-2.5744,150.7967,83.98,66,100,5.99,overcast clouds
271,Sarangani,PH,5.4033,125.4636,80.56,79,100,10.25,moderate rain
272,Bulgan,MN,48.8125,103.5347,64.09,33,100,3.18,overcast clouds
273,Boende,CD,-0.2167,20.8667,70.48,96,88,1.59,overcast clouds
274,Olafsvik,IS,64.8945,-23.7142,42.57,81,95,9.91,overcast clouds
275,Malartic,CA,48.1335,-78.1328,64.51,70,100,3.87,overcast clouds
276,Banjar,ID,-8.19,114.9675,83.5,78,94,1.1,moderate rain
277,Riyadh,SA,24.6877,46.7219,80.74,20,0,8.32,clear sky
278,Jardim,BR,-21.4803,-56.1381,69.96,49,100,2.64,overcast clouds
279,Boguchany,RU,58.3814,97.4531,52.25,80,100,8.88,overcast clouds
280,Torbay,CA,47.6666,-52.7314,40.26,68,20,5.75,few clouds
281,Summerville,US,33.0185,-80.1757,76.95,85,0,11.5,clear sky
282,Leogane,HT,18.5108,-72.6339,82.6,80,7,4.52,clear sky
283,Bulawayo,ZW,-20.15,28.5833,55.36,49,0,3.22,clear sky
284,Marsa Matruh,EG,31.3525,27.2453,66.4,88,0,3.44,clear sky
285,Pedro Juan Caballero,PY,-22.5472,-55.7333,65.14,62,0,6.53,clear sky
286,Narsaq,GL,60.9167,-46.05,39.42,67,0,2.98,clear sky
287,Alice Springs,AU,-23.7,133.8833,69.22,32,0,8.05,clear sky
288,Ganta,LR,7.3022,-8.5308,67.55,100,92,2.66,light rain
289,Coihaique,CL,-45.5752,-72.0662,31.95,86,20,5.75,few clouds
290,Mozelos,PT,41.8677,-8.3978,56.82,80,14,5.75,few clouds
291,Kattivakkam,IN,13.2167,80.3167,84.29,79,78,16.28,broken clouds
292,Constitucion,CL,-35.3333,-72.4167,49.5,76,85,6.73,overcast clouds
293,Palmas De Monte Alto,BR,-14.2672,-43.1619,70.5,57,53,7.76,broken clouds
294,Riberalta,BO,-10.9833,-66.1,77.31,60,24,1.66,few clouds
295,Rio Grande,BR,-32.035,-52.0986,60.94,98,100,10.94,light rain
296,Kahului,US,20.8947,-156.47,82.42,58,40,17.27,scattered clouds
297,Westport,US,41.1415,-73.3579,59.61,73,0,5.01,clear sky
298,Axim,GH,4.8699,-2.2405,77.9,84,71,4.18,light rain
299,Acarau,BR,-2.8856,-40.12,77.05,87,1,9.51,clear sky
300,Mookane,BW,-23.688,26.6595,59.38,37,0,5.88,clear sky
301,Jabinyanah,TN,35.035,10.9081,71.92,75,92,6.31,overcast clouds
302,Filingue,NE,14.3521,3.3168,92.23,22,20,4.83,few clouds
303,Port Elizabeth,ZA,-33.918,25.5701,61.09,94,40,6.91,scattered clouds
304,Coahuayana,MX,18.7333,-103.6833,78.85,72,98,5.26,overcast clouds
305,Narkevychi,UA,49.5172,26.6418,52.7,96,100,15.97,overcast clouds
306,Vanimo,PG,-2.6741,141.3028,85.1,67,93,1.28,overcast clouds
307,Rantauprapat,ID,2.1,99.8333,78.87,81,100,0.72,overcast clouds
308,Port Augusta,AU,-32.5,137.7667,62.6,68,3,6.04,clear sky
309,Pervomayskoye,RU,43.919,46.7102,53.33,74,14,7.65,few clouds
310,Broome,US,42.2506,-75.833,68.2,59,0,8.05,clear sky
311,Namatanai,PG,-3.6667,152.4333,84.4,66,98,3.09,overcast clouds
312,Salalah,OM,17.0151,54.0924,79.81,81,64,5.77,broken clouds
313,Dali,CN,25.7,100.1833,67.96,78,93,4.76,overcast clouds
314,Nigde,TR,37.8333,34.75,49.46,64,0,1.01,clear sky
315,Barabinsk,RU,55.3571,78.357,65.55,64,98,10.65,overcast clouds
316,La Ciotat,FR,43.1748,5.6045,66.45,83,44,3.85,scattered clouds
317,Pichayevo,RU,53.2363,42.2032,39.69,71,81,6.17,broken clouds
318,Kainantu,PG,-6.2887,145.8655,73.78,60,48,2.95,scattered clouds
319,Te Anau,NZ,-45.4167,167.7167,44.65,73,6,1.25,clear sky
320,Xanxere,BR,-26.8769,-52.4042,55.78,88,0,4.29,clear sky
321,Menongue,AO,-14.6585,17.691,48.16,55,0,3.09,clear sky
322,Yaizu,JP,34.8667,138.3333,71.29,73,75,8.05,broken clouds
323,Youghal,IE,51.95,-7.8506,54.61,100,55,12.28,broken clouds
324,Batemans Bay,AU,-35.7167,150.1833,64.54,58,100,4.14,light rain
325,Avera,US,33.194,-82.5271,78.31,66,100,14.03,overcast clouds
326,Bria,CF,6.5423,21.9863,68.59,95,98,3.42,overcast clouds
327,Ajaccio,FR,42.0,8.9167,62.58,77,0,2.3,clear sky
328,Waddan,LY,29.1614,16.139,84.99,9,0,20.78,clear sky
329,Ouegoa,NC,-20.35,164.4333,80.42,64,22,3.58,few clouds
330,Charters Towers,AU,-20.1,146.2667,75.4,53,0,9.06,clear sky
331,Sao Joao De Pirabas,BR,-0.7747,-47.1772,74.52,95,98,4.97,overcast clouds
332,Jalu,LY,29.0331,21.5482,82.27,12,0,6.71,clear sky
333,Talaya,RU,61.3833,152.75,42.35,77,100,4.81,overcast clouds
334,Purpe,RU,64.4803,76.6897,49.8,52,84,11.39,broken clouds
335,Sabang,ID,5.8933,95.3214,83.86,73,100,13.85,overcast clouds
336,Tahe,CN,52.3333,124.7333,74.14,26,18,4.16,few clouds
337,Oistins,BB,13.0667,-59.5333,80.69,78,40,16.11,scattered clouds
338,Kargil,IN,34.5667,76.1,49.23,42,11,3.11,few clouds
339,Jaque,PA,7.5175,-78.1703,79.23,86,100,4.38,overcast clouds
340,Mokhotlong,LS,-29.2894,29.0675,40.77,71,0,2.95,clear sky
341,Aykhal,RU,66.0,111.5,32.0,74,100,14.67,overcast clouds
342,Cabra,ES,37.4725,-4.4421,59.04,43,21,3.47,few clouds
343,Fort Nelson,CA,58.8053,-122.7002,54.99,47,75,9.22,shower rain
344,Springbok,ZA,-29.6643,17.8865,48.83,70,0,2.53,clear sky
345,Nuuk,GL,64.1835,-51.7216,36.21,69,20,6.91,few clouds
346,Chengde,CN,40.9725,117.9361,74.82,19,26,10.63,scattered clouds
347,Havoysund,NO,70.9963,24.6622,53.83,54,99,11.45,overcast clouds
348,Bagan,RU,54.1001,77.6646,65.66,54,100,11.05,overcast clouds
349,Moron,AR,-34.6534,-58.6198,49.75,93,15,4.32,few clouds
350,Shingu,JP,33.7333,135.9833,70.86,78,100,5.37,moderate rain
351,Diu,IN,20.7141,70.9822,81.12,79,5,12.39,clear sky
352,Escondido,US,33.1192,-117.0864,84.29,63,0,10.36,clear sky
353,Loukhi,RU,66.0764,33.0381,35.56,83,4,3.4,clear sky
354,Waipawa,NZ,-41.4122,175.5153,46.65,65,97,9.46,overcast clouds
355,Mandalgovi,MN,45.7625,106.2708,64.29,16,8,11.59,clear sky
356,Mackay,AU,-21.15,149.2,78.67,74,35,13.31,scattered clouds
357,Stokmarknes,NO,68.5646,14.9108,46.38,93,100,3.44,overcast clouds
358,Malacky,SK,48.436,17.0219,56.91,81,9,2.57,clear sky
359,Pangnirtung,CA,66.1451,-65.7125,13.57,95,99,9.4,overcast clouds
360,Banda Aceh,ID,5.5577,95.3222,82.42,75,100,8.46,overcast clouds
361,Harper,LR,4.375,-7.7169,76.6,86,100,5.88,moderate rain
362,Cockburn Town,TC,21.4612,-71.1419,79.32,75,0,17.43,clear sky
363,Tavares,US,28.8042,-81.7256,81.19,72,20,11.5,few clouds
364,Sao Sebastiao,BR,-23.76,-45.4097,67.05,83,0,3.76,clear sky
365,Dehui,CN,44.5333,125.7,52.47,81,100,2.68,light rain
366,Kaeo,NZ,-35.1,173.7833,67.32,68,13,2.91,few clouds
367,Sambava,MG,-14.2667,50.1667,70.27,87,13,7.11,few clouds
368,Sur,OM,22.5667,59.5289,88.95,44,0,11.68,clear sky
369,Belaya Gora,RU,68.5333,146.4167,40.68,61,100,10.6,overcast clouds
370,Ola,RU,59.5833,151.2833,43.14,96,100,12.08,light rain
371,Nyangao,TZ,-10.3333,39.2833,68.22,98,10,0.96,clear sky
372,Mangotsfield,GB,51.4878,-2.504,54.91,92,100,14.97,overcast clouds
373,Tuatapere,NZ,-46.1333,167.6833,48.83,65,51,1.14,broken clouds
374,Airai,TL,-8.9266,125.4092,69.58,68,85,3.47,overcast clouds
375,Port Macquarie,AU,-31.4333,152.9167,68.9,77,75,6.91,broken clouds
376,Pionerskiy,RU,54.9508,20.2275,46.74,85,7,11.41,clear sky
377,Amos,CA,48.5669,-78.1162,60.19,57,100,1.39,overcast clouds
378,Moyeuvre-Grande,FR,49.2517,6.0475,59.25,72,100,1.99,overcast clouds
379,Sinazongwe,ZM,-17.2614,27.4618,65.17,54,0,4.52,clear sky
380,Tankhoy,RU,51.5528,105.1306,59.47,52,2,1.9,clear sky
381,Tevaitoa,PF,-16.7833,-151.5,80.73,70,12,12.84,light rain
382,Richards Bay,ZA,-28.783,32.0377,68.77,89,3,10.76,clear sky
383,Bambanglipuro,ID,-7.95,110.2833,79.48,78,100,2.13,overcast clouds
384,Nyurba,RU,63.2842,118.3319,40.64,68,100,9.17,overcast clouds
385,Tallahassee,US,30.4383,-84.2807,78.64,85,75,3.44,thunderstorm
386,Katsuura,JP,35.1333,140.3,70.03,70,100,8.75,overcast clouds
387,Kerema,PG,-7.9631,145.7785,80.04,83,100,4.83,light rain
388,Naze,JP,28.3667,129.4833,76.12,80,88,6.38,overcast clouds
389,Karabulak,RU,43.3036,44.8964,43.79,85,9,4.21,clear sky
390,Venice,US,27.0998,-82.4543,83.98,79,100,16.11,thunderstorm
391,Bada,RU,51.392,109.8717,69.67,25,0,4.68,clear sky
392,Hue,VN,16.4667,107.6,86.11,70,40,2.3,scattered clouds
393,Peniche,PT,39.3558,-9.3811,60.12,88,6,14.16,clear sky
394,Leningradskiy,RU,69.3833,178.4167,47.66,65,98,7.16,overcast clouds
395,Nhulunbuy,AU,-12.2333,136.7667,86.61,58,40,12.66,scattered clouds
396,Hobyo,SO,5.3505,48.5268,78.98,81,84,21.56,broken clouds
397,Anshun,CN,26.25,105.9333,64.71,96,100,8.61,light rain
398,Itapirapua,BR,-15.8233,-50.6133,68.85,46,8,5.93,clear sky
399,Humboldt,US,40.6665,-123.9178,55.13,51,17,5.82,few clouds
400,Kutum,SD,14.2,24.6667,73.11,10,96,6.6,overcast clouds
401,Ewa Beach,US,21.3156,-158.0072,84.15,48,75,15.01,broken clouds
402,Kargasok,RU,59.0556,80.8572,59.5,54,82,8.97,broken clouds
403,Samarai,PG,-10.6167,150.6667,80.91,76,37,8.05,scattered clouds
404,Asahikawa,JP,43.7678,142.3703,74.41,53,20,4.61,few clouds
405,Dejen,ET,10.1667,38.1333,57.69,61,48,2.51,scattered clouds
406,Kuytun,RU,54.3419,101.5036,65.55,44,7,13.09,clear sky
407,Beckley,US,37.7782,-81.1882,66.67,89,100,11.5,overcast clouds
408,Wheatley,GB,51.7473,-1.1394,52.92,93,55,4.61,broken clouds
409,Eureka,US,40.8021,-124.1637,64.2,82,80,4.0,broken clouds
410,Maine-Soroa,NE,13.2114,12.0241,81.93,10,0,6.24,clear sky
411,Mont-De-Marsan,FR,44.0,-0.6667,54.79,92,0,2.3,clear sky
412,Prince Rupert,CA,54.3161,-130.3201,51.89,78,100,5.75,overcast clouds
413,Poum,NC,-20.2333,164.0167,77.18,71,1,5.3,clear sky
414,San Quintin,MX,30.4833,-115.95,65.97,67,0,5.55,clear sky
415,La Palma,US,33.8464,-118.0467,81.91,75,40,10.36,scattered clouds
416,Flinders,AU,-34.5833,150.8552,68.38,72,92,8.01,overcast clouds
417,Tupik,RU,54.4253,119.9327,67.96,36,100,6.55,overcast clouds
418,Hastings,GB,50.8552,0.5729,57.18,91,17,12.86,few clouds
419,Haines Junction,CA,60.7522,-137.5108,57.15,28,94,8.05,overcast clouds
420,Ngunguru,NZ,-35.6167,174.5,62.1,62,6,6.98,clear sky
421,Champerico,GT,14.3,-91.9167,79.68,83,100,12.73,overcast clouds
422,Kulu,TR,39.0951,33.0799,57.11,55,4,6.51,clear sky
423,Severodvinsk,RU,64.5635,39.8302,39.31,93,100,8.88,overcast clouds
424,Mahibadhoo,MV,3.7833,72.9667,82.72,72,52,8.75,broken clouds
425,Yerbogachen,RU,61.2767,108.0108,49.28,56,100,14.07,overcast clouds
426,Pitimbu,BR,-7.4706,-34.8086,73.99,84,100,12.66,overcast clouds
427,Eyl,SO,7.9803,49.8164,81.45,68,33,13.53,scattered clouds
428,Taltal,CL,-25.4,-70.4833,60.94,76,29,2.89,scattered clouds
429,Coquimbo,CL,-29.9533,-71.3436,53.33,100,0,5.75,clear sky
430,Noumea,NC,-22.2763,166.4572,82.38,99,29,6.46,scattered clouds
431,Jadu,LY,31.953,12.0261,75.85,15,53,16.67,broken clouds
432,Srednekolymsk,RU,67.45,153.6833,50.09,52,53,17.07,broken clouds
433,Dwarka,IN,22.2394,68.9678,81.5,79,10,16.58,clear sky
434,Albanel,CA,48.8832,-72.4487,58.98,44,90,3.44,overcast clouds
435,Suriapet,IN,17.15,79.6167,90.05,41,88,5.75,overcast clouds
436,Bandarbeyla,SO,9.4942,50.8122,78.82,88,89,21.0,overcast clouds
437,Ilinskoye-Khovanskoye,RU,56.9718,39.7684,38.68,93,87,7.2,light rain
438,Tautira,PF,-17.7333,-149.15,79.57,70,30,10.16,scattered clouds
439,Zhigansk,RU,66.7697,123.3711,35.08,68,67,24.58,broken clouds
440,Kurilsk,RU,45.2333,147.8833,51.51,78,38,3.33,scattered clouds
441,La Crosse,US,43.8014,-91.2396,58.41,95,100,4.61,mist
442,Tevriz,RU,57.509,72.4042,63.9,68,100,5.84,overcast clouds
443,Gorshechnoye,RU,51.5244,38.0365,45.88,92,3,6.53,clear sky
444,Svetlogorsk,BY,52.6333,29.7333,55.26,82,100,10.47,overcast clouds
445,Thinadhoo,MV,0.5333,72.9333,83.07,68,25,3.94,scattered clouds
446,Uji,JP,34.8833,135.8,79.63,48,100,7.09,overcast clouds
447,Spartanburg,US,34.9496,-81.9321,67.41,85,100,9.22,overcast clouds
448,Korla,CN,41.7597,86.1469,83.39,15,100,6.11,overcast clouds
449,Merauke,ID,-8.4667,140.3333,84.6,64,97,7.67,overcast clouds
450,Ariquemes,BR,-9.9133,-63.0408,75.38,78,91,1.88,overcast clouds
451,Guerrero Negro,MX,27.9769,-114.0611,67.35,66,0,16.64,clear sky
452,Maniitsoq,GL,65.4167,-52.9,32.67,64,22,14.97,few clouds
453,Mehamn,NO,71.0357,27.8492,46.31,64,18,11.9,few clouds
454,Izhma,RU,65.0083,53.9113,52.95,90,99,11.63,overcast clouds
455,Demba,CD,-5.51,22.2667,66.15,98,79,1.7,broken clouds
456,Kasongo-Lunda,CD,-6.4667,16.8167,68.58,89,12,1.05,few clouds
457,Paraiso,CR,9.8383,-83.8656,66.42,97,100,0.87,overcast clouds
458,Chicama,PE,-7.8447,-79.1469,61.34,83,18,5.08,few clouds
459,Andenes,NO,69.3143,16.1194,49.98,81,100,5.75,overcast clouds
460,Innisfail,AU,-17.5333,146.0333,76.89,72,24,7.02,few clouds
461,Hun,LY,29.1268,15.9477,85.08,9,0,17.81,clear sky
462,Beringovskiy,RU,63.05,179.3167,47.53,59,100,5.06,overcast clouds
463,Sarandi,BR,-23.4436,-51.8739,72.95,53,0,9.22,clear sky
464,Decatur,US,39.8403,-88.9548,74.95,88,75,12.66,broken clouds
465,Timra,SE,62.487,17.3257,46.08,93,100,3.44,overcast clouds
466,Bushehr,IR,28.9684,50.8385,78.89,65,0,6.91,clear sky
467,Kavaratti,IN,10.5669,72.642,83.19,78,65,9.48,broken clouds
468,Chhabra,IN,24.6667,76.8333,89.11,29,0,7.61,clear sky
469,Iberia,US,29.9502,-91.7507,78.87,83,0,6.91,clear sky
470,Zaysan,KZ,47.4667,84.8667,73.2,54,30,4.52,scattered clouds
471,Kitimat,CA,54.0524,-128.6534,52.18,96,100,2.3,moderate rain
472,Marawi,PH,7.9986,124.2928,78.19,73,78,1.57,broken clouds
473,Balabac,PH,7.9868,117.0645,83.59,78,100,9.62,overcast clouds
474,Puerto Escondido,MX,15.85,-97.0667,81.32,80,100,3.18,overcast clouds
475,Ilebo,CD,-4.3167,20.5833,68.2,98,79,1.14,broken clouds
476,Kamaishi,JP,39.2667,141.8833,67.69,72,82,11.77,broken clouds
477,Hami,CN,42.8,93.45,84.02,10,100,10.74,overcast clouds
478,Avigliana,IT,45.0771,7.3986,66.34,78,53,4.45,broken clouds
479,Moose Factory,CA,51.2585,-80.6094,42.8,65,20,6.91,few clouds
480,Yate,GB,51.5407,-2.4184,54.79,91,18,7.0,few clouds
481,Cayenne,GF,4.9333,-52.3333,82.09,1,75,2.3,broken clouds
482,Sakakah,SA,29.9697,40.2064,76.57,22,0,16.98,clear sky
483,Chaman,PK,30.9236,66.4512,74.57,10,0,2.95,clear sky
484,Lethem,GY,3.3803,-59.7968,76.48,87,17,6.76,few clouds
485,Hirosaki,JP,40.5931,140.4725,81.68,38,100,2.71,overcast clouds
486,Illapel,CL,-31.6308,-71.1653,59.74,69,0,1.3,clear sky
487,Ust-Ishim,RU,57.6935,71.1665,63.95,66,99,6.6,overcast clouds
488,Vrchlabi,CZ,50.627,15.6094,53.44,96,100,1.92,overcast clouds
489,Maragogi,BR,-9.0122,-35.2225,75.87,89,98,10.47,overcast clouds
490,Carutapera,BR,-1.195,-46.02,74.44,96,86,5.7,overcast clouds
491,Nizwa,OM,22.9333,57.5333,81.37,39,0,1.28,clear sky
492,Milkovo,RU,54.7167,158.6167,48.2,77,100,1.97,overcast clouds
493,Hovd,MN,48.0056,91.6419,73.62,27,100,2.64,overcast clouds
494,Kulhudhuffushi,MV,6.6221,73.07,82.35,76,97,10.33,overcast clouds
495,Pangoa,PE,-12.1167,-73.0,67.6,98,100,2.51,overcast clouds
496,Yar-Sale,RU,66.8333,70.8333,41.0,70,100,13.47,overcast clouds
497,Minas,UY,-34.3759,-55.2377,49.44,94,100,8.9,overcast clouds
498,Manadhoo,MV,5.7667,73.3833,82.17,78,100,10.69,overcast clouds
499,Tara,RU,56.8944,74.371,64.42,68,100,7.34,overcast clouds
500,Vilaka,LV,57.1846,27.6722,54.32,78,100,2.1,overcast clouds
501,Panguna,PG,-6.3164,155.4848,82.26,60,100,2.51,overcast clouds
502,Manage,BE,50.4933,4.2406,57.56,92,75,12.66,broken clouds
503,Sungaipenuh,ID,-2.0833,101.3833,70.95,69,93,1.23,overcast clouds
504,Nsunga,TZ,-1.1439,31.3947,61.59,97,100,2.53,overcast clouds
505,Khanpur,PK,28.6453,70.6567,86.74,46,0,9.93,clear sky
506,Westerland,DE,54.9079,8.3033,55.94,88,75,19.57,broken clouds
507,Abu Kamal,SY,34.4506,40.9171,71.46,25,0,2.86,clear sky
508,Redmond,US,47.674,-122.1215,72.25,53,57,5.01,broken clouds
509,Bonthe,SL,7.5264,-12.505,75.97,90,100,7.99,moderate rain
510,Mnogovershinnyy,RU,53.9353,139.9242,52.92,64,99,0.94,overcast clouds
511,Puerto Madryn,AR,-42.7692,-65.0385,43.93,33,0,7.29,clear sky
512,Bo Rai,TH,12.5728,102.5371,85.77,85,100,4.21,overcast clouds
513,Kiama,AU,-34.6833,150.8667,68.58,71,98,3.0,overcast clouds
514,Acapulco,MX,16.8634,-99.8901,82.22,74,75,0.0,broken clouds
515,Hay River,CA,60.8156,-115.7999,48.18,46,40,12.66,scattered clouds
516,Weiser,US,44.251,-116.9693,84.4,24,28,1.01,scattered clouds
517,Micheweni,TZ,-4.9667,39.8333,77.65,85,100,10.07,light rain
518,Ashland,US,40.8167,-82.2665,73.94,74,100,7.43,overcast clouds
519,Blytheville,US,35.9273,-89.919,73.96,73,0,16.11,clear sky
520,Svetlaya,RU,46.5389,138.3297,51.75,84,100,3.98,overcast clouds
521,Sechura,PE,-5.5569,-80.8222,67.14,74,23,15.37,few clouds
522,Novikovo,RU,51.1537,37.8879,47.84,89,6,5.82,clear sky
523,Port Hardy,CA,50.6996,-127.4199,55.58,62,75,13.8,broken clouds
524,Camacha,PT,33.0833,-16.3333,60.22,82,75,8.05,broken clouds
525,San Luis,AR,-33.295,-66.3356,42.82,76,68,17.92,broken clouds
526,Northam,GB,51.0333,-4.2167,55.26,94,100,13.73,overcast clouds
527,Tailai,CN,46.3833,123.4,63.9,47,100,21.65,overcast clouds
528,Inuvik,CA,68.3499,-133.7218,58.06,30,75,6.91,broken clouds
529,San Carlos De Bariloche,AR,-41.1456,-71.3082,26.35,80,0,6.91,clear sky
530,Rovaniemi,FI,66.5,25.7167,49.41,49,0,10.36,clear sky
531,Betong,TH,5.7743,101.0723,74.95,94,100,0.56,overcast clouds
532,Kayes,ML,14.0,-11.0,90.01,39,100,8.66,light rain
533,Viedma,AR,-40.8135,-62.9967,40.12,59,0,5.95,clear sky
534,Yumen,CN,40.2833,97.2,66.67,11,100,15.46,overcast clouds
535,Manokwari,ID,-0.8667,134.0833,81.16,74,100,7.56,overcast clouds
536,Abu Samrah,SY,35.3029,37.1841,66.61,43,0,3.53,clear sky
537,Bairiki,KI,1.3292,172.9752,86.0,66,40,9.22,scattered clouds
538,Kohtla-Jarve,EE,59.3986,27.2731,52.48,71,100,8.63,light rain
539,Zaoyang,CN,32.1272,112.7542,61.25,77,100,5.44,overcast clouds
540,Sorland,NO,67.667,12.6934,46.26,87,93,10.38,overcast clouds
541,Henties Bay,NA,-22.116,14.2845,58.46,81,0,4.07,clear sky
542,Cortez,US,37.3489,-108.5859,74.16,13,0,19.57,clear sky
543,Yatou,CN,37.15,122.3833,70.05,36,0,15.66,clear sky
544,Ostrovnoy,RU,68.0531,39.5131,35.49,98,100,7.4,overcast clouds
545,Wanning,CN,18.8003,110.3967,83.28,79,100,6.64,overcast clouds
546,Biritiba-Mirim,BR,-23.5698,-46.0407,57.38,78,0,2.95,clear sky
547,Alekseyevsk,RU,57.8406,108.3492,56.97,75,96,9.53,light rain
548,Bull Savanna,JM,17.8868,-77.5902,75.74,81,12,9.19,few clouds
549,Itarema,BR,-2.9248,-39.9167,76.23,90,42,9.91,scattered clouds
550,Lesnoy,RU,57.6198,63.0784,53.13,95,89,5.23,overcast clouds
551,Aripuana,BR,-9.1667,-60.6333,76.69,70,77,2.06,broken clouds
552,San Cristobal,VE,7.7669,-72.225,66.22,95,100,3.29,overcast clouds
553,Luena,AO,-11.7833,19.9167,49.93,48,0,3.51,clear sky
554,San Jose,US,37.3394,-121.895,91.29,40,75,14.97,broken clouds
555,Shitanjing,CN,39.2342,106.3439,66.09,15,11,3.42,few clouds
556,Haapiti,PF,-17.5667,-149.8667,85.73,70,22,9.42,few clouds
557,Saint Pete Beach,US,27.7253,-82.7412,84.25,67,0,0.0,clear sky
558,Ust-Nera,RU,64.5667,143.2,48.16,57,100,7.9,overcast clouds
559,Kawalu,ID,-7.3817,108.2082,76.24,83,100,1.52,overcast clouds
560,Penapolis,BR,-21.4197,-50.0775,62.02,52,0,6.33,clear sky
561,Kondagaon,IN,19.6,81.6667,80.31,37,1,4.05,clear sky
562,Meadow Lake,US,34.8014,-106.5436,79.74,11,0,18.99,clear sky
563,Rognan,NO,67.0953,15.3878,49.75,88,82,2.98,broken clouds
564,Perth,AU,-31.9333,115.8333,64.09,73,0,11.5,clear sky
565,Breytovo,RU,58.2993,37.8617,40.87,83,99,4.97,overcast clouds
566,Palmer,US,42.1584,-72.3287,63.21,60,75,14.97,broken clouds
567,Iskitim,RU,54.6366,83.3045,63.39,65,12,12.84,few clouds
568,Biberach,DE,48.0934,9.7905,52.9,90,100,1.83,overcast clouds
569,Alyangula,AU,-13.8483,136.4192,82.89,57,15,12.17,few clouds
570,Olinda,BR,-8.0089,-34.8553,73.13,94,75,8.05,broken clouds
571,Halle,DE,51.5,12.0,57.9,62,0,11.5,clear sky
572,El Dorado,US,38.7666,-120.5177,89.64,30,100,1.01,overcast clouds
573,Parakan,ID,-6.4191,106.0081,77.45,89,100,1.81,overcast clouds
574,Jizan,SA,17.3333,42.6667,86.94,76,2,2.64,clear sky
575,Kungurtug,RU,50.5994,97.5228,60.1,69,100,3.49,overcast clouds
576,Half Moon Bay,US,37.4636,-122.4286,88.57,61,40,14.97,scattered clouds
577,Kozan,TR,37.4552,35.8157,65.25,58,0,6.46,clear sky
578,Keti Bandar,PK,24.1447,67.4497,81.86,85,40,20.42,scattered clouds
579,Ituporanga,BR,-27.4144,-49.6025,58.59,95,28,1.88,scattered clouds
580,Kangaatsiaq,GL,68.3065,-53.4641,32.32,75,87,8.9,overcast clouds
581,Satellite Beach,US,28.1761,-80.5901,82.06,81,0,14.97,clear sky
582,El Alto,PE,-4.2714,-81.2147,64.0,82,76,13.42,broken clouds
583,Jinchang,CN,38.4953,102.1739,66.2,18,100,4.16,overcast clouds
584,Praya,CV,14.9215,-23.5087,72.14,73,75,11.5,broken clouds
585,Aswan,EG,24.0934,32.907,78.1,15,0,10.36,clear sky
586,Zaraza,VE,9.3503,-65.3245,79.84,68,100,6.58,overcast clouds
587,Kaohsiung,TW,22.6163,120.3133,84.15,82,75,3.0,broken clouds
588,Grafenau,DE,48.8577,13.3974,53.06,89,100,1.14,overcast clouds
589,Copiapo,CL,-27.3667,-70.3333,53.29,60,11,0.96,few clouds
590,Winnemucca,US,40.973,-117.7357,86.05,11,0,6.91,clear sky
591,North Bend,US,43.4065,-124.2243,73.24,91,0,14.97,clear sky
592,Buala,SB,-8.145,159.5921,84.52,71,62,3.85,light rain
593,Solvychegodsk,RU,61.3305,46.9156,40.69,97,100,3.94,overcast clouds
594,Puerto Ayacucho,VE,5.6639,-67.6236,76.1,91,24,3.4,few clouds
595,Shadegan,IR,30.6497,48.6647,80.55,19,0,10.0,clear sky
596,Traverse City,US,44.7631,-85.6206,61.74,96,100,5.75,light rain
597,Laje,BR,-10.1833,-40.9667,68.04,94,98,11.56,overcast clouds
598,Launceston,AU,-41.45,147.1667,57.79,87,40,6.91,scattered clouds
599,Cabedelo,BR,-6.9811,-34.8339,74.07,84,98,11.39,overcast clouds
600,Turochak,RU,52.2576,87.1224,68.67,80,51,1.77,light rain
601,Fuyu,CN,45.1833,124.8167,51.21,92,100,7.31,moderate rain
602,Hengyang,CN,26.8881,112.615,68.81,95,100,6.51,overcast clouds
603,Sangar,RU,63.9242,127.4739,50.63,44,75,0.54,broken clouds
604,Araouane,ML,18.9048,-3.5265,85.73,38,85,17.22,overcast clouds
605,Hefei,CN,31.8639,117.2808,68.02,77,0,11.18,clear sky
606,Prieska,ZA,-29.6641,22.7474,55.99,43,0,2.91,clear sky
607,La Plata,AR,-34.9215,-57.9545,46.04,90,15,6.46,few clouds
608,Igarka,RU,67.4667,86.5833,39.33,70,15,10.13,few clouds
609,Neepawa,CA,50.2289,-99.4664,64.8,75,24,12.62,few clouds
610,Yellandu,IN,17.6,80.3333,86.2,55,95,5.1,overcast clouds
611,Gunjur,GM,13.2019,-16.7339,71.67,88,0,6.91,clear sky
612,Porto Novo,BJ,6.4965,2.6036,82.22,85,100,5.19,overcast clouds
613,Ozuluama,MX,21.6667,-97.85,78.94,87,100,8.03,overcast clouds
614,General Pico,AR,-35.6566,-63.7568,41.16,74,1,7.45,clear sky
615,Jelgava,LV,56.65,23.7128,50.04,96,98,6.08,overcast clouds
616,Kushiro,JP,42.975,144.3747,56.35,82,20,11.5,fog
617,Lata,PT,40.1629,-8.3327,57.07,71,0,4.27,clear sky
618,Silvino Lobos,PH,12.3,124.8333,90.32,54,100,3.58,overcast clouds
619,Belle Fourche,US,44.6714,-103.8522,67.32,42,32,1.41,scattered clouds
620,San Isidro,PE,-12.1167,-77.05,64.02,82,100,8.05,overcast clouds
621,Whitehorse,CA,60.7161,-135.0538,54.37,40,75,17.0,broken clouds
622,Ikom,NG,5.9667,8.7063,72.61,99,62,0.6,broken clouds
623,Ende,ID,-8.8432,121.6623,85.08,71,83,3.27,broken clouds
624,Kosjeric,RS,43.9961,19.9069,58.33,98,26,4.5,scattered clouds
625,Muros,ES,42.7762,-9.0603,59.09,81,22,9.84,few clouds
626,Ratnagiri,IN,16.9833,73.3,84.15,65,95,10.54,overcast clouds
627,Wahiawa,US,21.5028,-158.0236,80.92,52,40,13.8,scattered clouds
628,Chapais,CA,49.7834,-74.8492,53.38,73,100,4.74,overcast clouds
629,Chaiya,TH,9.3862,99.1986,82.38,74,72,6.24,broken clouds
630,Belyy Yar,RU,53.6039,91.3903,70.86,41,0,11.18,clear sky
631,Juneau,US,58.3019,-134.4197,60.8,76,75,8.05,broken clouds
632,Lumeje,AO,-11.55,20.7833,52.39,46,0,5.5,clear sky
633,Muisne,EC,0.6,-80.0333,76.68,84,100,7.85,overcast clouds
634,Kenora,CA,49.8167,-94.4337,59.97,47,75,9.22,broken clouds
635,Santa Rosa,PH,14.3122,121.1114,90.1,72,93,2.21,overcast clouds
636,Los Llanos De Aridane,ES,28.6585,-17.9182,63.12,75,100,11.99,overcast clouds
637,Highland,US,34.1283,-117.2086,93.11,40,0,11.5,haze
638,Ambon,ID,-3.6954,128.1814,84.34,79,40,1.14,scattered clouds
639,Aguimes,ES,27.9054,-15.4461,65.66,64,75,18.41,broken clouds
640,Nelson Bay,AU,-32.7167,152.15,70.09,71,82,1.99,broken clouds
641,Pokrovo-Prigorodnoye,RU,52.6841,41.4175,44.94,78,98,6.58,overcast clouds
642,Mujiayingzi,CN,42.1167,118.7833,69.33,26,78,22.97,broken clouds
643,Santo Antonio Do Ica,BR,-3.1022,-67.9397,74.5,95,100,1.95,overcast clouds
644,Burgos,ES,42.3394,-3.7079,43.21,93,40,2.3,scattered clouds
645,Urengoy,RU,65.9667,78.3667,45.05,58,12,8.12,few clouds
646,Antofagasta,CL,-23.65,-70.4,58.28,83,46,4.88,scattered clouds
647,Margate,GB,51.3813,1.3862,53.31,85,15,1.99,few clouds
648,Byron Bay,AU,-28.65,153.6167,68.7,72,25,7.94,scattered clouds
649,Korhogo,CI,9.45,-5.6333,72.61,87,73,4.23,light rain
650,Krutinka,RU,56.0055,71.5113,65.21,65,45,9.13,scattered clouds
651,Bakchar,RU,57.0186,82.0711,64.38,53,0,8.81,clear sky
652,Marfino,RU,55.7028,37.3822,44.94,71,0,4.47,clear sky
653,Bilibino,RU,68.0546,166.4372,58.08,36,100,13.35,light rain
654,Cam Ranh,VN,11.9214,109.1591,84.16,74,75,2.3,broken clouds
655,Payson,US,40.0444,-111.7321,75.58,25,0,5.75,clear sky
656,Caceres,ES,39.522,-6.3748,55.71,50,5,6.53,clear sky
657,Diego De Almagro,CL,-26.3667,-70.05,58.46,47,6,1.99,clear sky
658,Ca Mau,VN,9.1769,105.15,88.39,62,95,12.75,overcast clouds
659,Alampur,IN,15.8833,78.15,87.49,53,64,13.53,broken clouds
660,Dale,US,38.1689,-86.99,74.91,78,75,12.66,broken clouds
661,Cedar City,US,37.6775,-113.0619,79.39,13,0,0.0,clear sky
662,San Vicente,AR,-26.6167,-54.1333,62.51,79,2,3.98,clear sky
663,Vanderhoof,CA,54.0166,-124.0198,55.22,66,37,8.21,scattered clouds
664,Halayhayin,PH,14.1891,121.4075,87.4,62,100,2.17,overcast clouds
665,Wasilla,US,61.5814,-149.4394,65.48,51,0,10.36,clear sky
666,Verkhnevilyuysk,RU,63.4453,120.3167,41.76,60,100,9.28,overcast clouds
667,Kawhia,NZ,-38.0651,174.8183,60.4,54,6,2.98,clear sky
668,Ouadda,CF,8.0777,22.4007,68.43,85,100,3.98,overcast clouds
669,Lahaina,US,20.8783,-156.6825,83.44,73,8,9.78,clear sky
670,Narovchat,RU,53.8765,43.6946,37.69,82,34,7.05,scattered clouds
671,Gulmarg,IN,34.049,74.3921,54.75,62,0,1.63,clear sky
672,Palauig,PH,15.435,119.9045,86.79,68,67,8.23,broken clouds
673,Derzhavinsk,KZ,51.1,66.3167,73.08,36,38,11.05,scattered clouds
674,Abong Mbang,CM,3.9833,13.1833,64.94,98,73,1.77,broken clouds
675,Puerto Gaitan,CO,4.3133,-72.0816,77.59,85,89,4.36,overcast clouds
676,Erzin,TR,36.9559,36.2,65.53,66,0,3.27,clear sky
677,Hualmay,PE,-11.0964,-77.6139,63.72,84,61,7.58,broken clouds
678,Mahon,ES,39.8885,4.2658,66.76,63,0,16.11,clear sky
679,Svetlyy,RU,54.675,20.1347,47.97,93,12,8.41,few clouds
680,Morgan City,US,29.6994,-91.2068,73.4,100,0,3.44,clear sky
681,Terrell,US,32.736,-96.2753,69.58,56,100,4.61,overcast clouds
682,Nizhniy Baskunchak,RU,48.2198,46.8311,55.62,70,100,7.45,overcast clouds
683,Kharan,PK,28.5833,65.4167,85.59,36,0,2.51,clear sky
